[{"time":"07/31 14:56","latitude":"23.18","longitude":"121.40","amgnitude":"3.6","depth":" 20.9","location":"臺東縣政府北偏東方  53.6  公里 (位於臺東縣近海)\n","url":"ECL0731145636.htm"},{"time":"07/29 20:44","latitude":"23.93","longitude":"121.50","amgnitude":"3.0","depth":" 18.9","location":"花蓮縣政府西偏南方  14.3  公里 (位於花蓮縣秀林鄉)\n","url":"ECL0729204430.htm"},{"time":"07/28 16:18","latitude":"23.17","longitude":"121.32","amgnitude":"2.6","depth":" 20.2","location":"臺東縣政府北偏東方  49.4  公里 (位於臺東縣成功鎮)\n","url":"ECL0728161826.htm"},{"time":"07/27 11:55","latitude":"22.07","longitude":"121.48","amgnitude":"3.5","depth":" 18.0","location":"臺東縣政府南偏東方  83.6  公里 (位於臺灣東南部海域)\n","url":"ECL0727115535.htm"},{"time":"07/27 05:08","latitude":"24.93","longitude":"122.28","amgnitude":"3.7","depth":" 14.1","location":"宜蘭縣政府東偏北方  56.6  公里 (位於臺灣東部海域)\n","url":"ECL0727050837.htm"},{"time":"07/27 04:45","latitude":"24.90","longitude":"122.25","amgnitude":"3.7","depth":" 12.0","location":"宜蘭縣政府東偏北方  52.6  公里 (位於臺灣東部海域)\n","url":"ECL0727044537.htm"},{"time":"07/27 03:49","latitude":"23.03","longitude":"120.18","amgnitude":"2.5","depth":" 10.7","location":"臺南市政府北方  4.7  公里 (位於臺南市安南區)\n","url":"ECL0727034925.htm"},{"time":"07/26 20:30","latitude":"24.22","longitude":"121.81","amgnitude":"2.6","depth":" 16.3","location":"花蓮縣政府東北方  32.1  公里 (位於臺灣東部海域)\n","url":"ECL0726203026.htm"},{"time":"07/25 16:55","latitude":"24.23","longitude":"121.82","amgnitude":"4.0","depth":" 16.5","location":"花蓮縣政府東北方  32.6  公里 (位於臺灣東部海域)\n","url":"EC0725165540111.htm"},{"time":"07/25 02:58","latitude":"24.47","longitude":"121.85","amgnitude":"2.3","depth":" 10.6","location":"宜蘭縣政府南偏東方  30.3  公里 (位於宜蘭縣近海)\n","url":"ECL0725025823.htm"},{"time":"07/25 02:39","latitude":"22.39","longitude":"120.45","amgnitude":"3.9","depth":" 32.1","location":"屏東縣政府南方  33.0  公里 (位於屏東縣近海)\n","url":"ECL0725023939.htm"},{"time":"07/24 22:09","latitude":"24.53","longitude":"121.83","amgnitude":"2.5","depth":"  8.1","location":"宜蘭縣政府南偏東方  23.0  公里 (位於宜蘭縣南澳鄉)\n","url":"ECL0724220925.htm"},{"time":"07/23 21:59","latitude":"22.36","longitude":"120.90","amgnitude":"2.5","depth":" 10.1","location":"臺東縣政府南偏西方  51.1  公里 (位於臺東縣大武鄉)\n","url":"ECL0723215925.htm"},{"time":"07/23 21:58","latitude":"22.36","longitude":"120.89","amgnitude":"3.3","depth":"  9.5","location":"臺東縣政府西南方  51.1  公里 (位於臺東縣大武鄉)\n","url":"ECL0723215833.htm"},{"time":"07/23 18:04","latitude":"24.01","longitude":"121.70","amgnitude":"3.8","depth":" 37.4","location":"花蓮縣政府東偏北方  8.3  公里 (位於花蓮縣近海)\n","url":"ECL0723180438.htm"}]